[
  {
    "state": "AK",
    "state_name": "Alaska",
    "count": 229,
    "file": "AK.json",
    "latitude": 61.370716,
    "longitude": -149.493686
  },
  {
    "state": "AL",
    "state_name": "Alabama",
    "count": 584,
    "file": "AL.json",
    "latitude": 32.806671,
    "longitude": -86.791130
  },
  {
    "state": "AR",
    "state_name": "Arkansas",
    "count": 605,
    "file": "AR.json",
    "latitude": 34.969704,
    "longitude": -92.373123
    
  },
  {
    "state": "AZ",
    "state_name": "Arizona",
    "count": 266,
    "file": "AZ.json",
    "latitude": 33.729759,
    "longitude": -111.431221
  },
  {
    "state": "CA",
    "state_name": "California",
    "count": 1242,
    "file": "CA.json",
    "latitude": 36.116203,
    "longitude": -119.681564
  },
  {
    "state": "CO",
    "state_name": "Colorado",
    "count": 409,
    "file": "CO.json",
    "latitude": 39.059811,
    "longitude": -105.311104
  },
  {
    "state": "CT",
    "state_name": "Connecticut",
    "count": 269,
    "file": "CT.json",
    "latitude": 41.597782,
    "longitude": -72.755371
  },
  {
    "state": "DC",
    "state_name": "District of Columbia",
    "count": 3,
    "file": "DC.json",
    "latitude": 38.9072,
    "longitude": -77.0369
  },
  {
    "state": "DE",
    "state_name": "Delaware",
    "count": 57,
    "file": "DE.json",
    "latitude": 39.318523,
    "longitude": -75.507141
  },
  {
    "state": "FL",
    "state_name": "Florida",
    "count": 534,
    "file": "FL.json",
    "latitude": 27.766279,
    "longitude": -81.686783
  },
  {
    "state": "GA",
    "state_name": "Georgia",
    "count": 635,
    "file": "GA.json",
    "latitude": 33.040619,
    "longitude": -83.643074
  },
  {
    "state": "HI",
    "state_name": "Hawaii",
    "count": 92,
    "file": "HI.json",
    "latitude": 21.094318,
    "longitude": -157.498337
  },
  {
    "state": "IA",
    "state_name": "Iowa",
    "count": 938,
    "file": "IA.json",
    "latitude": 42.011539,
    "longitude": -93.210526 
  },
  {
    "state": "ID",
    "state_name": "Idaho",
    "count": 267,
    "file": "ID.json",
    "latitude": 44.299782,
    "longitude": -114.742040 
  },
  {
    "state": "IL",
    "state_name": "Illinois",
    "count": 1291,
    "file": "IL.json",
    "latitude": 40.298904,
    "longitude": -88.539091
  },
  {
    "state": "IN",
    "state_name": "Indiana",
    "count": 740,
    "file": "IN.json",
    "latitude": 39.849426,
    "longitude": -86.258278
  },
  {
    "state": "KS",
    "state_name": "Kansas",
    "count": 634,
    "file": "KS.json",
    "latitude": 38.526600,
    "longitude": -96.726486
  },
  {
    "state": "KY",
    "state_name": "Kentucky",
    "count": 803,
    "file": "KY.json",
    "latitude": 37.668140,
    "longitude": -84.670067
  },
  {
    "state": "LA",
    "state_name": "Louisiana",
    "count": 480,
    "file": "LA.json",
    "latitude": 31.169546,
    "longitude": -91.867805
  },
  {
    "state": "MA",
    "state_name": "Massachusetts",
    "count": 511,
    "file": "MA.json",
    "latitude": 42.230171,
    "longitude": -71.530106
  },
  {
    "state": "MD",
    "state_name": "Maryland",
    "count": 435,
    "file": "MD.json",
    "latitude": 39.063946,
    "longitude": -76.802101
  },
  {
    "state": "ME",
    "state_name": "Maine",
    "count": 461,
    "file": "ME.json",
    "latitude": 44.693947,
    "longitude": -69.381927
  },
  {
    "state": "MI",
    "state_name": "Michigan",
    "count": 886,
    "file": "MI.json",
    "latitude": 42.326515,
    "longitude": -83.636718
  },
  {
    "state": "MN",
    "state_name": "Minnesota",
    "count": 821,
    "file": "MN.json",
    "latitude": 45.694454,
    "longitude": -93.900192
  },
  {
    "state": "MO",
    "state_name": "Missouri",
    "count": 945,
    "file": "MO.json",
    "latitude": 36.462232,
    "longitude": -92.302035
  },
  {
    "state": "MS",
    "state_name": "Mississippi",
    "count": 441,
    "file": "MS.json",
    "latitude": 32.741646,
    "longitude": -89.678696
  },
  {
    "state": "MT",
    "state_name": "Montana",
    "count": 360,
    "file": "MT.json",
    "latitude": 46.928474,
    "longitude": -110.454353
  },
  {
    "state": "NC",
    "state_name": "North Carolina",
    "count": 765,
    "file": "NC.json",
    "latitude": 35.630066,
    "longitude": -79.806419
  },
  {
    "state": "ND",
    "state_name": "North Dakota",
    "count": 373,
    "file": "ND.json",
    "latitude": 47.528912,
    "longitude": -99.784012
  },
  {
    "state": "NE",
    "state_name": "Nebraska",
    "count": 529,
    "file": "NE.json",
    "latitude": 41.125370,
    "longitude": -98.268082
  },
  {
    "state": "NH",
    "state_name": "New Hampshire",
    "count": 255,
    "file": "NH.json",
    "latitude": 43.452492,
    "longitude": -71.563896
  },
  {
    "state": "NJ",
    "state_name": "New Jersey",
    "count": 582,
    "file": "NJ.json",
    "latitude": 40.298904,
    "longitude": -74.521011
  },
  {
    "state": "NM",
    "state_name": "New Mexico",
    "count": 346,
    "file": "NM.json",
    "latitude": 34.840515,
    "longitude": -106.248482
  },
  {
    "state": "NV",
    "state_name": "Nevada",
    "count": 100,
    "file": "NV.json",
    "latitude": 38.313515,
    "longitude": -117.055374
  },
  {
    "state": "NY",
    "state_name": "New York",
    "count": 1614,
    "file": "NY.json",
    "latitude": 42.165726,
    "longitude": -74.948051
  },
  {
    "state": "OH",
    "state_name": "Ohio",
    "count": 1077,
    "file": "OH.json",
    "latitude": 40.388783,
    "longitude": -82.764915
  },
  {
    "state": "OK",
    "state_name": "Oklahoma",
    "count": 588,
    "file": "OK.json",
    "latitude": 35.565342,
    "longitude": -96.928917
  },
  {
    "state": "OR",
    "state_name": "Oregon",
    "count": 382,
    "file": "OR.json",
    "latitude": 44.299782,
    "longitude": -120.535722
  },
  {
    "state": "PA",
    "state_name": "Pennsylvania",
    "count": 1809,
    "file": "PA.json",
    "latitude": 40.590752,
    "longitude": -77.209755
  },
  {
    "state": "PR",
    "state_name": "Puerto Rico",
    "count": 99,
    "file": "PR.json",
    "latitude": 18.220833,
    "longitude": -66.590149
  },
  {
    "state": "RI",
    "state_name": "Rhode Island",
    "count": 70,
    "file": "RI.json",
    "latitude": 41.680894,
    "longitude": -71.511780
  },
  {
    "state": "SC",
    "state_name": "South Carolina",
    "count": 383,
    "file": "SC.json",
    "latitude": 33.856892,
    "longitude": -80.945007
  },
  {
    "state": "SD",
    "state_name": "South Dakota",
    "count": 365,
    "file": "SD.json",
    "latitude": 44.299782,
    "longitude": -99.438828
  },
  {
    "state": "TN",
    "state_name": "Tennessee",
    "count": 548,
    "file": "TN.json",
    "latitude": 35.747845,
    "longitude": -86.692345
  },
  {
    "state": "TX",
    "state_name": "Texas",
    "count": 1480,
    "file": "TX.json",
    "latitude": 31.054487,
    "longitude": -97.563461
  },
  {
    "state": "UT",
    "state_name": "Utah",
    "count": 250,
    "file": "UT.json",
    "latitude": 40.150032,
    "longitude": -111.862434
  },
  {
    "state": "VA",
    "state_name": "Virginia",
    "count": 859,
    "file": "VA.json",
    "latitude": 37.769337,
    "longitude": -78.169968
  },
  {
    "state": "VT",
    "state_name": "Vermont",
    "count": 288,
    "file": "VT.json",
    "latitude": 44.045876,
    "longitude": -72.710686
  },
  {
    "state": "WA",
    "state_name": "Washington",
    "count": 494,
    "file": "WA.json",
    "latitude": 47.400902,
    "longitude": -121.490494
  },
  {
    "state": "WI",
    "state_name": "Wisconsin",
    "count": 756,
    "file": "WI.json",
    "latitude": 44.268543,
    "longitude": -89.616508
  },
  {
    "state": "WV",
    "state_name": "West Virginia",
    "count": 754,
    "file": "WV.json",
    "latitude": 38.491226,
    "longitude": -80.954827
  },
  {
    "state": "WY",
    "state_name": "Wyoming",
    "count": 176,
    "file": "WY.json",
    "latitude": 42.755966,
    "longitude": -107.302490
  }
]